{"businesses": [{"id": "tXZOJhUUknjTRRo9j4ckZg", "alias": "farida-central-asian-cuisine-and-grill-new-york-2", "name": "Farida Central Asian Cuisine & Grill", "image_url": "https://s3-media1.fl.yelpcdn.com/bphoto/8PDT9gGzXRW5OyAK6j8chA/o.jpg", "is_closed": false, "url": "https://www.yelp.com/biz/farida-central-asian-cuisine-and-grill-new-york-2?adjust_creative=8LDVg-b_g12XFhJtqKdw9A&utm_campaign=yelp_api_v3&utm_medium=api_v3_business_search&utm_source=8LDVg-b_g12XFhJtqKdw9A", "review_count": 159, "categories": [{"alias": "uzbek", "title": "Uzbek"}, {"alias": "russian", "title": "Russian"}, {"alias": "halal", "title": "Halal"}], "rating": 4.5, "coordinates": {"latitude": 40.75568, "longitude": -73.99441}, "transactions": ["pickup", "delivery"], "price": "$$", "location": {"address1": "498 9th Ave", "address2": null, "address3": "", "city": "New York", "zip_code": "10018", "country": "US", "state": "NY", "display_address": ["498 9th Ave", "New York, NY 10018"]}, "phone": "+16468632020", "display_phone": "(646) 863-2020", "distance": 5576.668196085386}, {"id": "btLgjl8CEgW2wvB0ZI-Aqg", "alias": "mari-vanna-new-york-2", "name": "Mari Vanna", "image_url": "https://s3-media3.fl.yelpcdn.com/bphoto/Fp_3cLy4_9NXgia8MhyMFg/o.jpg", "is_closed": false, "url": "https://www.yelp.com/biz/mari-vanna-new-york-2?adjust_creative=8LDVg-b_g12XFhJtqKdw9A&utm_campaign=yelp_api_v3&utm_medium=api_v3_business_search&utm_source=8LDVg-b_g12XFhJtqKdw9A", "review_count": 618, "categories": [{"alias": "russian", "title": "Russian"}], "rating": 4.0, "coordinates": {"latitude": 40.73878, "longitude": -73.98858}, "transactions": ["pickup", "delivery"], "price": "$$$", "location": {"address1": "41 E 20th St", "address2": "", "address3": "", "city": "New York", "zip_code": "10003", "country": "US", "state": "NY", "display_address": ["41 E 20th St", "New York, NY 10003"]}, "phone": "+12127771955", "display_phone": "(212) 777-1955", "distance": 3739.9756500406675}, {"id": "6Lz2pAw1LqIa7nKsRUT52A", "alias": "tzarevna-new-york", "name": "Tzarevna", "image_url": "https://s3-media4.fl.yelpcdn.com/bphoto/msxiBu9FQDRpaGrmtD6o7A/o.jpg", "is_closed": false, "url": "https://www.yelp.com/biz/tzarevna-new-york?adjust_creative=8LDVg-b_g12XFhJtqKdw9A&utm_campaign=yelp_api_v3&utm_medium=api_v3_business_search&utm_source=8LDVg-b_g12XFhJtqKdw9A", "review_count": 3, "categories": [{"alias": "russian", "title": "Russian"}, {"alias": "wine_bars", "title": "Wine Bars"}, {"alias": "tapasmallplates", "title": "Tapas/Small Plates"}], "rating": 5.0, "coordinates": {"latitude": 40.72082, "longitude": -73.98874}, "transactions": ["pickup", "delivery"], "location": {"address1": "154 Orchard St", "address2": null, "address3": "", "city": "New York", "zip_code": "10002", "country": "US", "state": "NY", "display_address": ["154 Orchard St", "New York, NY 10002"]}, "phone": "+19173882814", "display_phone": "(917) 388-2814", "distance": 1768.2126048490577}, {"id": "wJ9VnRlrJJP5QnVohBDjoA", "alias": "russian-vodka-room-new-york", "name": "Russian Vodka Room", "image_url": "https://s3-media3.fl.yelpcdn.com/bphoto/EJsBbPAFi6TqMN7C-RUCPA/o.jpg", "is_closed": false, "url": "https://www.yelp.com/biz/russian-vodka-room-new-york?adjust_creative=8LDVg-b_g12XFhJtqKdw9A&utm_campaign=yelp_api_v3&utm_medium=api_v3_business_search&utm_source=8LDVg-b_g12XFhJtqKdw9A", "review_count": 524, "categories": [{"alias": "lounges", "title": "Lounges"}, {"alias": "russian", "title": "Russian"}, {"alias": "jazzandblues", "title": "Jazz & Blues"}], "rating": 4.0, "coordinates": {"latitude": 40.76349, "longitude": -73.9848}, "transactions": [], "price": "$$", "location": {"address1": "265 W 52nd St", "address2": "", "address3": "", "city": "New York", "zip_code": "10019", "country": "US", "state": "NY", "display_address": ["265 W 52nd St", "New York, NY 10019"]}, "phone": "+12123075835", "display_phone": "(212) 307-5835", "distance": 6503.7308715178715}, {"id": "lSJD2Gcf9LjJqpLE7pUlWQ", "alias": "russian-samovar-restaurant-and-piano-bar-new-york-2", "name": "Russian Samovar Restaurant and Piano Bar", "image_url": "https://s3-media2.fl.yelpcdn.com/bphoto/o8_HWEnmezlx2PNF2yPgrw/o.jpg", "is_closed": false, "url": "https://www.yelp.com/biz/russian-samovar-restaurant-and-piano-bar-new-york-2?adjust_creative=8LDVg-b_g12XFhJtqKdw9A&utm_campaign=yelp_api_v3&utm_medium=api_v3_business_search&utm_source=8LDVg-b_g12XFhJtqKdw9A", "review_count": 398, "categories": [{"alias": "russian", "title": "Russian"}, {"alias": "bars", "title": "Bars"}], "rating": 4.0, "coordinates": {"latitude": 40.7632, "longitude": -73.98469}, "transactions": ["restaurant_reservation", "pickup", "delivery"], "price": "$$", "location": {"address1": "256 W 52nd St", "address2": "", "address3": "", "city": "New York", "zip_code": "10019", "country": "US", "state": "NY", "display_address": ["256 W 52nd St", "New York, NY 10019"]}, "phone": "+12127570168", "display_phone": "(212) 757-0168", "distance": 6468.13746056094}, {"id": "kjmpK3LsCJp2qGukcV_0aQ", "alias": "daa-dumplings-new-york-4", "name": "Daa! Dumplings", "image_url": "https://s3-media3.fl.yelpcdn.com/bphoto/OHNsiqx5Jw7BMtOkRUEhAw/o.jpg", "is_closed": false, "url": "https://www.yelp.com/biz/daa-dumplings-new-york-4?adjust_creative=8LDVg-b_g12XFhJtqKdw9A&utm_campaign=yelp_api_v3&utm_medium=api_v3_business_search&utm_source=8LDVg-b_g12XFhJtqKdw9A", "review_count": 92, "categories": [{"alias": "russian", "title": "Russian"}], "rating": 4.5, "coordinates": {"latitude": 40.6650377515107, "longitude": -73.9798863371133}, "transactions": ["pickup", "delivery"], "price": "$$", "location": {"address1": "1000 S 8th Ave", "address2": "", "address3": "", "city": "New York", "zip_code": "10019", "country": "US", "state": "NY", "display_address": ["1000 S 8th Ave", "New York, NY 10019"]}, "phone": "+12127576207", "display_phone": "(212) 757-6207", "distance": 6906.3248502335955}, {"id": "qIDwDSiUMzzq-MWWirTQwQ", "alias": "anyway-cafe-new-york", "name": "Anyway Cafe", "image_url": "https://s3-media1.fl.yelpcdn.com/bphoto/0BNEWiFtiGGYFstW2La50A/o.jpg", "is_closed": false, "url": "https://www.yelp.com/biz/anyway-cafe-new-york?adjust_creative=8LDVg-b_g12XFhJtqKdw9A&utm_campaign=yelp_api_v3&utm_medium=api_v3_business_search&utm_source=8LDVg-b_g12XFhJtqKdw9A", "review_count": 208, "categories": [{"alias": "russian", "title": "Russian"}], "rating": 4.0, "coordinates": {"latitude": 40.7250017, "longitude": -73.9906009}, "transactions": [], "price": "$$", "location": {"address1": "32 E 2nd St", "address2": null, "address3": "", "city": "New York", "zip_code": "10003", "country": "US", "state": "NY", "display_address": ["32 E 2nd St", "New York, NY 10003"]}, "phone": "+12125333412", "display_phone": "(212) 533-3412", "distance": 2196.771870655575}, {"id": "yKOTFgZmTFeas8Pvt077vA", "alias": "the-russian-tea-room-new-york", "name": "The Russian Tea Room", "image_url": "https://s3-media1.fl.yelpcdn.com/bphoto/RUi5a52Tq-FomE-UjuE1Pg/o.jpg", "is_closed": false, "url": "https://www.yelp.com/biz/the-russian-tea-room-new-york?adjust_creative=8LDVg-b_g12XFhJtqKdw9A&utm_campaign=yelp_api_v3&utm_medium=api_v3_business_search&utm_source=8LDVg-b_g12XFhJtqKdw9A", "review_count": 923, "categories": [{"alias": "tea", "title": "Tea Rooms"}, {"alias": "russian", "title": "Russian"}, {"alias": "venues", "title": "Venues & Event Spaces"}], "rating": 3.0, "coordinates": {"latitude": 40.764958, "longitude": -73.9794337}, "transactions": ["pickup", "delivery"], "price": "$$$$", "location": {"address1": "150 W 57th St", "address2": null, "address3": "", "city": "New York", "zip_code": "10019", "country": "US", "state": "NY", "display_address": ["150 W 57th St", "New York, NY 10019"]}, "phone": "+12125817100", "display_phone": "(212) 581-7100", "distance": 6734.946115153841}, {"id": "cAcazXWgluB_2-n0KbDQXQ", "alias": "old-baku-brooklyn", "name": "Old Baku", "image_url": "https://s3-media2.fl.yelpcdn.com/bphoto/dbfN56_hXF9e47Rc7ZvBiQ/o.jpg", "is_closed": false, "url": "https://www.yelp.com/biz/old-baku-brooklyn?adjust_creative=8LDVg-b_g12XFhJtqKdw9A&utm_campaign=yelp_api_v3&utm_medium=api_v3_business_search&utm_source=8LDVg-b_g12XFhJtqKdw9A", "review_count": 55, "categories": [{"alias": "mideastern", "title": "Middle Eastern"}, {"alias": "russian", "title": "Russian"}, {"alias": "hookah_bars", "title": "Hookah Bars"}], "rating": 4.0, "coordinates": {"latitude": 40.635906, "longitude": -73.977561}, "transactions": [], "price": "$$", "location": {"address1": "115 Ditmas Ave", "address2": "", "address3": "", "city": "Brooklyn", "zip_code": "11218", "country": "US", "state": "NY", "display_address": ["115 Ditmas Ave", "Brooklyn, NY 11218"]}, "phone": "+17185766399", "display_phone": "(718) 576-6399", "distance": 7867.984482705444}, {"id": "SYTBg4SzYuZxrxK3YDU2xg", "alias": "cheburechnaya-rego-park", "name": "Cheburechnaya", "image_url": "https://s3-media2.fl.yelpcdn.com/bphoto/7xypufmWqu1ro6NxZVUNiw/o.jpg", "is_closed": false, "url": "https://www.yelp.com/biz/cheburechnaya-rego-park?adjust_creative=8LDVg-b_g12XFhJtqKdw9A&utm_campaign=yelp_api_v3&utm_medium=api_v3_business_search&utm_source=8LDVg-b_g12XFhJtqKdw9A", "review_count": 235, "categories": [{"alias": "kosher", "title": "Kosher"}, {"alias": "russian", "title": "Russian"}, {"alias": "uzbek", "title": "Uzbek"}], "rating": 4.0, "coordinates": {"latitude": 40.7275992341691, "longitude": -73.8640816882253}, "transactions": ["pickup", "delivery"], "price": "$$", "location": {"address1": "9209 63rd Dr", "address2": "Ste A", "address3": "", "city": "Rego Park", "zip_code": "11374", "country": "US", "state": "NY", "display_address": ["9209 63rd Dr", "Ste A", "Rego Park, NY 11374"]}, "phone": "+17188979080", "display_phone": "(718) 897-9080", "distance": 11247.280969990064}, {"id": "zMV3am6rEoP43jLeHvzUeA", "alias": "antons-dumplings-brooklyn", "name": "Anton's Dumplings", "image_url": "https://s3-media2.fl.yelpcdn.com/bphoto/UvHfZ54EUa8JzpMFl0FHJw/o.jpg", "is_closed": false, "url": "https://www.yelp.com/biz/antons-dumplings-brooklyn?adjust_creative=8LDVg-b_g12XFhJtqKdw9A&utm_campaign=yelp_api_v3&utm_medium=api_v3_business_search&utm_source=8LDVg-b_g12XFhJtqKdw9A", "review_count": 60, "categories": [{"alias": "foodtrucks", "title": "Food Trucks"}, {"alias": "russian", "title": "Russian"}], "rating": 4.5, "coordinates": {"latitude": 40.71378, "longitude": -73.95645}, "transactions": ["delivery", "pickup"], "price": "$", "location": {"address1": "90 Havemeyer St", "address2": "", "address3": "", "city": "Brooklyn", "zip_code": "11211", "country": "US", "state": "NY", "display_address": ["90 Havemeyer St", "Brooklyn, NY 11211"]}, "phone": "+19179744827", "display_phone": "(917) 974-4827", "distance": 3321.16307864727}, {"id": "8kG7sCmIimbiG3_hjQfYZg", "alias": "matryoshka-new-york", "name": "Matryoshka", "image_url": "https://s3-media4.fl.yelpcdn.com/bphoto/sNhBmBhNg4ZyOXm1CkSZrw/o.jpg", "is_closed": false, "url": "https://www.yelp.com/biz/matryoshka-new-york?adjust_creative=8LDVg-b_g12XFhJtqKdw9A&utm_campaign=yelp_api_v3&utm_medium=api_v3_business_search&utm_source=8LDVg-b_g12XFhJtqKdw9A", "review_count": 21, "categories": [{"alias": "russian", "title": "Russian"}], "rating": 3.5, "coordinates": {"latitude": 40.7092569, "longitude": -74.0058865}, "transactions": ["pickup", "delivery"], "price": "$$", "location": {"address1": "88 Fulton St", "address2": "", "address3": "", "city": "New York", "zip_code": "10038", "country": "US", "state": "NY", "display_address": ["88 Fulton St", "New York, NY 10038"]}, "phone": "+12127668600", "display_phone": "(212) 766-8600", "distance": 1065.1847827054678}, {"id": "7l5AYCSQ3v2AeIbQ5uED9A", "alias": "svetas-house-rego-park", "name": "Sveta's House", "image_url": "https://s3-media2.fl.yelpcdn.com/bphoto/Gz_zM4Pobq8ClXlPcfcHHg/o.jpg", "is_closed": false, "url": "https://www.yelp.com/biz/svetas-house-rego-park?adjust_creative=8LDVg-b_g12XFhJtqKdw9A&utm_campaign=yelp_api_v3&utm_medium=api_v3_business_search&utm_source=8LDVg-b_g12XFhJtqKdw9A", "review_count": 39, "categories": [{"alias": "russian", "title": "Russian"}, {"alias": "modern_european", "title": "Modern European"}], "rating": 4.5, "coordinates": {"latitude": 40.7318974, "longitude": -73.8674434}, "transactions": ["pickup", "delivery"], "price": "$$", "location": {"address1": "92-60 Queens Blvd", "address2": "", "address3": "", "city": "Rego Park", "zip_code": "11374", "country": "US", "state": "NY", "display_address": ["92-60 Queens Blvd", "Rego Park, NY 11374"]}, "phone": "+17188991405", "display_phone": "(718) 899-1405", "distance": 11089.090213576255}, {"id": "80h4Y4OwRBzSZqH1-0i35g", "alias": "cafe-lily-brooklyn-2", "name": "Cafe Lily", "image_url": "https://s3-media3.fl.yelpcdn.com/bphoto/peMf8O8kr2M36j8MDxAbxA/o.jpg", "is_closed": false, "url": "https://www.yelp.com/biz/cafe-lily-brooklyn-2?adjust_creative=8LDVg-b_g12XFhJtqKdw9A&utm_campaign=yelp_api_v3&utm_medium=api_v3_business_search&utm_source=8LDVg-b_g12XFhJtqKdw9A", "review_count": 42, "categories": [{"alias": "russian", "title": "Russian"}, {"alias": "korean", "title": "Korean"}, {"alias": "uzbek", "title": "Uzbek"}], "rating": 4.5, "coordinates": {"latitude": 40.61002, "longitude": -73.98356}, "transactions": ["pickup"], "price": "$$", "location": {"address1": "42 Avenue O", "address2": "", "address3": "", "city": "Brooklyn", "zip_code": "11204", "country": "US", "state": "NY", "display_address": ["42 Avenue O", "Brooklyn, NY 11204"]}, "phone": "+17188725500", "display_phone": "(718) 872-5500", "distance": 10640.463111386794}, {"id": "OHd10z7zMp_nXeskyVkG4Q", "alias": "asia-restaurant-brooklyn-2", "name": "Asia Restaurant", "image_url": "https://s3-media3.fl.yelpcdn.com/bphoto/_F9i1R4lF8TyfHv_Ms_hNQ/o.jpg", "is_closed": false, "url": "https://www.yelp.com/biz/asia-restaurant-brooklyn-2?adjust_creative=8LDVg-b_g12XFhJtqKdw9A&utm_campaign=yelp_api_v3&utm_medium=api_v3_business_search&utm_source=8LDVg-b_g12XFhJtqKdw9A", "review_count": 30, "categories": [{"alias": "russian", "title": "Russian"}, {"alias": "steak", "title": "Steakhouses"}], "rating": 4.0, "coordinates": {"latitude": 40.63709, "longitude": -73.99453}, "transactions": ["pickup", "delivery"], "price": "$$", "location": {"address1": "4813 New Utrecht Ave", "address2": "", "address3": "", "city": "Brooklyn", "zip_code": "11219", "country": "US", "state": "NY", "display_address": ["4813 New Utrecht Ave", "Brooklyn, NY 11219"]}, "phone": "+17189723434", "display_phone": "(718) 972-3434", "distance": 7607.436385689213}, {"id": "A3Avu_j2Zc0UCqVU2UBXKw", "alias": "argo-brooklyn", "name": "Argo", "image_url": "https://s3-media3.fl.yelpcdn.com/bphoto/rNEqB1JcT9F-7mwgCWp44Q/o.jpg", "is_closed": false, "url": "https://www.yelp.com/biz/argo-brooklyn?adjust_creative=8LDVg-b_g12XFhJtqKdw9A&utm_campaign=yelp_api_v3&utm_medium=api_v3_business_search&utm_source=8LDVg-b_g12XFhJtqKdw9A", "review_count": 14, "categories": [{"alias": "georgian", "title": "Georgian"}, {"alias": "russian", "title": "Russian"}, {"alias": "modern_european", "title": "Modern European"}], "rating": 4.0, "coordinates": {"latitude": 40.6088299, "longitude": -73.9618304}, "transactions": [], "price": "$$", "location": {"address1": "1985 Coney Island Ave", "address2": null, "address3": "", "city": "Brooklyn", "zip_code": "11223", "country": "US", "state": "NY", "display_address": ["1985 Coney Island Ave", "Brooklyn, NY 11223"]}, "phone": "+17185522242", "display_phone": "(718) 552-2242", "distance": 11086.595959824668}, {"id": "ByDKkAjaJ8bsD3gjISxJAQ", "alias": "appetitto-jackson-heights-3", "name": "Appetitto", "image_url": "https://s3-media2.fl.yelpcdn.com/bphoto/D3Rrk6mqdvosyncPtruZaA/o.jpg", "is_closed": false, "url": "https://www.yelp.com/biz/appetitto-jackson-heights-3?adjust_creative=8LDVg-b_g12XFhJtqKdw9A&utm_campaign=yelp_api_v3&utm_medium=api_v3_business_search&utm_source=8LDVg-b_g12XFhJtqKdw9A", "review_count": 15, "categories": [{"alias": "russian", "title": "Russian"}, {"alias": "delis", "title": "Delis"}, {"alias": "sandwiches", "title": "Sandwiches"}], "rating": 4.5, "coordinates": {"latitude": 40.7495136, "longitude": -73.8867641}, "transactions": [], "price": "$", "location": {"address1": "79-07 37th Ave", "address2": "", "address3": "", "city": "Jackson Heights", "zip_code": "11372", "country": "US", "state": "NY", "display_address": ["79-07 37th Ave", "Jackson Heights, NY 11372"]}, "phone": "+13478080709", "display_phone": "(347) 808-0709", "distance": 10301.179917611924}, {"id": "ueuZOk-eIQj691FsizC7wg", "alias": "emir-palace-brooklyn", "name": "Emir Palace", "image_url": "https://s3-media2.fl.yelpcdn.com/bphoto/NMcZyI9f1dHp8hQSqj5dDQ/o.jpg", "is_closed": false, "url": "https://www.yelp.com/biz/emir-palace-brooklyn?adjust_creative=8LDVg-b_g12XFhJtqKdw9A&utm_campaign=yelp_api_v3&utm_medium=api_v3_business_search&utm_source=8LDVg-b_g12XFhJtqKdw9A", "review_count": 12, "categories": [{"alias": "russian", "title": "Russian"}, {"alias": "uzbek", "title": "Uzbek"}, {"alias": "mideastern", "title": "Middle Eastern"}], "rating": 3.0, "coordinates": {"latitude": 40.6318092, "longitude": -73.9755707}, "transactions": ["pickup", "delivery"], "price": "$$$", "location": {"address1": "4210 18th Ave", "address2": null, "address3": "", "city": "Brooklyn", "zip_code": "11218", "country": "US", "state": "NY", "display_address": ["4210 18th Ave", "Brooklyn, NY 11218"]}, "phone": "+17184310007", "display_phone": "(718) 431-0007", "distance": 8336.646408129007}, {"id": "9Wgj-XJqNY6CfhU23_MVvw", "alias": "shashlichnaya-rego-park", "name": "Shashlichnaya", "image_url": "https://s3-media1.fl.yelpcdn.com/bphoto/c-ockmUlIFrDuHSl_wrysw/o.jpg", "is_closed": false, "url": "https://www.yelp.com/biz/shashlichnaya-rego-park?adjust_creative=8LDVg-b_g12XFhJtqKdw9A&utm_campaign=yelp_api_v3&utm_medium=api_v3_business_search&utm_source=8LDVg-b_g12XFhJtqKdw9A", "review_count": 19, "categories": [{"alias": "kebab", "title": "Kebab"}, {"alias": "russian", "title": "Russian"}], "rating": 3.5, "coordinates": {"latitude": 40.7293894507187, "longitude": -73.8615164905787}, "transactions": [], "location": {"address1": "96-30 Queens Blvd", "address2": "", "address3": null, "city": "Rego Park", "zip_code": "11374", "country": "US", "state": "NY", "display_address": ["96-30 Queens Blvd", "Rego Park, NY 11374"]}, "phone": "+17184409577", "display_phone": "(718) 440-9577", "distance": 11502.61688396521}, {"id": "zZWcEsNq4ckhlf9XWd1OYQ", "alias": "gayanas-bakery-cafe-brooklyn", "name": "Gayana's Bakery Cafe", "image_url": "https://s3-media2.fl.yelpcdn.com/bphoto/THiPz7Uld0KKIeDFm-6k1Q/o.jpg", "is_closed": false, "url": "https://www.yelp.com/biz/gayanas-bakery-cafe-brooklyn?adjust_creative=8LDVg-b_g12XFhJtqKdw9A&utm_campaign=yelp_api_v3&utm_medium=api_v3_business_search&utm_source=8LDVg-b_g12XFhJtqKdw9A", "review_count": 9, "categories": [{"alias": "russian", "title": "Russian"}, {"alias": "bakeries", "title": "Bakeries"}], "rating": 4.0, "coordinates": {"latitude": 40.6357856, "longitude": -73.9744622}, "transactions": [], "price": "$", "location": {"address1": "418 Ditmas Ave", "address2": "", "address3": "", "city": "Brooklyn", "zip_code": "11218", "country": "US", "state": "NY", "display_address": ["418 Ditmas Ave", "Brooklyn, NY 11218"]}, "phone": "+17189753870", "display_phone": "(718) 975-3870", "distance": 7921.747783190224}], "total": 26, "region": {"center": {"longitude": -73.99429321289062, "latitude": 40.70544486444615}}}